City_ID,City,Lat,Lng,Max Temp,Humidity,Cloudiness,Wind Speed,Country,Date
0,angaur state,6.906,134.13,27.9,81,100,8.7,PW,1689535135
1,adamstown,-25.066,-130.1015,20.79,79,100,3.15,PN,1689534908
2,port-aux-francais,-49.35,70.2167,2.0,54,92,12.92,TF,1689534898
3,stanley,54.868,-1.6985,16.77,74,20,5.66,GB,1689535137
4,ust-nera,64.5667,143.2,9.96,78,12,3.86,RU,1689535137
5,east london,-33.0153,27.9116,17.63,55,99,1.77,ZA,1689535137
6,puerto ayacucho,5.6639,-67.6236,29.34,73,29,1.78,VE,1689535138
7,umbauba,-11.3833,-37.6578,25.5,69,31,3.56,BR,1689535138
8,okha,53.5739,142.9478,10.65,98,98,4.86,RU,1689535139
9,cozumel,20.5083,-86.9458,34.04,64,40,5.14,MX,1689535139
10,isafjordur,66.0755,-23.124,10.24,57,19,3.72,IS,1689534915
11,yellowknife,62.456,-114.3525,22.29,49,75,6.17,CA,1689534912
12,tiksi,71.6872,128.8694,4.66,93,100,2.59,RU,1689534916
13,ilulissat,69.2167,-51.1,4.01,100,100,2.06,GL,1689534906
14,nova vicosa,-17.8919,-39.3719,24.32,71,80,3.67,BR,1689535141
15,tafuna,-14.3358,-170.72,26.97,94,75,5.14,AS,1689535141
16,gaigeturi,33.4644,126.3183,26.03,89,0,1.03,KR,1689535142
17,blackmans bay,-43.0167,147.3167,12.07,65,40,5.78,AU,1689535054
18,edinburgh of the seven seas,-37.0676,-12.3116,13.01,78,10,13.04,SH,1689535142
19,la palma,33.8464,-118.0467,38.7,65,20,3.6,US,1689535143
20,viedma,-40.8135,-62.9967,7.17,65,100,9.13,AR,1689535144
21,iqaluit,63.7506,-68.5145,9.85,87,100,3.6,CA,1689534895
22,okhotsk,59.3833,143.3,13.97,90,100,0.87,RU,1689535144
23,thompson,55.7435,-97.8558,15.09,72,100,2.06,CA,1689534892
24,hadibu,12.65,54.0333,25.66,79,93,7.4,YE,1689535145
25,englewood,39.6478,-104.9878,32.17,33,20,2.06,US,1689534889
26,jiangyou,31.7667,104.7167,22.75,83,8,1.68,CN,1689535146
27,mana,5.6592,-53.7767,28.54,77,9,5.18,GF,1689535147
28,misratah,32.3754,15.0925,29.11,54,0,3.8,LY,1689535147
29,zeya,53.75,127.2667,18.54,67,5,1.69,RU,1689535148
30,bethel,41.3712,-73.414,25.47,88,100,2.86,US,1689535065
31,wailua homesteads,22.0669,-159.378,27.44,74,75,6.17,US,1689535078
32,colonia,50.9333,6.95,23.36,44,0,4.12,DE,1689535098
33,ciudad lazaro cardenas,17.9583,-102.2,31.71,67,56,3.33,MX,1689535149
34,kaa-khem,51.6833,94.7333,15.85,79,4,1.67,RU,1689534919
35,waitangi,-43.9535,-176.5597,9.9,82,100,13.76,NZ,1689534907
36,sorong,-0.8833,131.25,25.26,91,100,4.83,ID,1689535151
37,island harbour,50.724,-1.2758,17.89,78,88,3.58,GB,1689535151
38,la'ie,21.6477,-157.9253,27.98,79,9,2.68,US,1689535152
39,qaqortoq,60.7167,-46.0333,6.4,93,100,2.1,GL,1689535082
40,katsuren-haebaru,26.3369,127.8719,28.43,86,75,8.23,JP,1689535152
41,cururupu,-1.8283,-44.8683,28.28,71,24,2.65,BR,1689535123
42,egilsstadir,65.2653,-14.3948,7.95,87,75,1.54,IS,1689535082
43,sao paulo de olivenca,-3.3783,-68.8725,29.23,74,100,1.05,BR,1689535154
44,yulinshi,38.2906,109.7494,23.83,26,0,1.9,CN,1689535154
45,bayganin,48.6947,55.8742,20.82,48,21,6.57,KZ,1689535154
46,olonkinbyen,70.9221,-8.7187,4.23,96,100,9.94,SJ,1689535060
47,tres arroyos,-38.3739,-60.2798,8.63,54,67,7.53,AR,1689535155
48,labrador city,52.9463,-66.9114,23.95,53,40,4.12,CA,1689535156
49,wellington,-41.2866,174.7756,6.81,93,4,2.57,NZ,1689535083
50,boende,-0.2167,20.8667,27.22,58,74,0.54,CD,1689535157
51,porto sant'elpidio,43.2583,13.7583,29.9,72,0,3.75,IT,1689535157
52,bikenibeu village,1.3673,173.1241,26.98,89,20,0.0,KI,1689535062
53,berlin,52.5244,13.4105,26.76,42,0,3.09,DE,1689534945
54,hithadhoo,-0.6,73.0833,27.43,76,1,0.69,MV,1689535158
55,albany,42.6001,-73.9662,28.23,78,100,2.3,US,1689534894
56,papatowai,-46.5619,169.4708,9.53,80,44,7.12,NZ,1689534897
57,taksimo,56.3444,114.8794,16.66,77,9,0.34,RU,1689535159
58,mora,11.0461,14.1401,30.42,42,10,3.28,CM,1689535160
59,avarua,-21.2078,-159.775,23.03,68,100,0.51,CK,1689535052
60,kill devil hills,36.0307,-75.676,31.01,75,75,12.35,US,1689535161
61,uturoa,-16.7333,-151.4333,25.67,67,1,3.74,PF,1689535093
62,margaret river,-33.95,115.0667,15.69,80,62,6.64,AU,1689535066
63,lautoka,-17.6167,177.4667,18.92,88,20,2.06,FJ,1689535162
64,hermanus,-34.4187,19.2345,11.0,87,100,3.74,ZA,1689535090
65,praia da vitoria,38.7333,-27.0667,22.14,73,75,5.9,PT,1689535163
66,talnakh,69.4865,88.3972,5.67,91,100,1.23,RU,1689535163
67,mocimboa,-11.3167,40.35,21.69,86,10,3.61,MZ,1689535163
68,lukolela,-1.0605,17.1821,26.64,54,80,0.61,CD,1689535164
69,battagram,34.6772,73.0233,23.68,81,0,1.81,PK,1689535164
70,tazovsky,67.4667,78.7,6.2,60,0,3.38,RU,1689534909
71,cholpon-ata,42.6494,77.0823,18.03,77,100,1.77,KG,1689535165
72,kodiak,57.79,-152.4072,13.73,77,100,3.6,US,1689535055
73,kidal,18.4411,1.4078,37.06,26,21,3.55,ML,1689535166
74,whitehorse,60.7161,-135.0538,22.83,41,20,5.81,CA,1689534846
75,ribeira grande,38.5167,-28.7,22.22,64,40,5.14,PT,1689535077
76,frutal,-20.0247,-48.9406,29.54,31,52,2.3,BR,1689535167
77,santiago de cao,-7.9589,-79.2392,24.07,78,43,5.66,PE,1689535168
78,alapayevsk,57.8516,61.6963,14.49,94,66,1.0,RU,1689535168
79,pisco,-13.7,-76.2167,21.03,68,100,5.14,PE,1689535168
80,grytviken,-54.2811,-36.5092,-5.78,69,19,2.25,GS,1689535060
81,hamilton,39.1834,-84.5333,30.12,59,0,4.63,US,1689535025
82,xilin hot,43.9667,116.0333,18.03,53,0,2.47,CN,1689535170
83,papao,-17.75,-149.55,26.82,66,3,0.6,PF,1689535170
84,susuman,62.7833,148.1667,16.08,74,96,2.26,RU,1689535171
85,rakops,-21.0167,24.3333,15.05,35,60,1.18,BW,1689535171
86,fortuna,40.5982,-124.1573,18.14,85,40,4.63,US,1689535171
87,chilecito,-29.1619,-67.4974,12.87,38,0,4.34,AR,1689535172
88,baukau,51.5526,7.2042,22.73,57,87,2.68,DE,1689535172
89,keflavik,64.0049,-22.5624,13.95,54,0,9.77,IS,1689535173
90,mossel bay,-34.1831,22.146,10.96,76,100,0.22,ZA,1689535173
91,carnarvon,-24.8667,113.6333,15.64,57,0,5.4,AU,1689535085
92,lepsy,46.235,78.9456,26.58,28,0,2.77,KZ,1689535174
93,utrik,11.2278,169.8474,27.69,80,53,6.97,MH,1689534917
94,ta`u,-14.2336,-169.5144,26.28,81,77,7.56,AS,1689535175
95,constantia,44.1833,28.65,23.38,67,0,4.7,RO,1689534987
96,puerto natales,-51.7236,-72.4875,6.25,56,75,7.72,CL,1689534894
97,port hedland,-20.3167,118.5667,15.03,44,5,4.12,AU,1689535176
98,rosario do sul,-30.2583,-54.9142,13.92,62,76,3.42,BR,1689535176
99,invercargill,-46.4,168.35,8.31,88,53,6.13,NZ,1689535079
100,nadym,65.5333,72.5167,13.03,64,14,5.59,RU,1689535177
101,caarapo,-22.6342,-54.8222,18.87,49,73,1.28,BR,1689535178
102,bubaque,11.2833,-15.8333,27.8,78,100,7.33,GW,1689535178
103,svetlyy,54.675,20.1347,19.03,76,97,0.66,RU,1689535178
104,ushuaia,-54.8,-68.3,3.81,65,20,1.54,AR,1689534895
105,udachny,66.4167,112.4,10.25,57,99,3.34,RU,1689535101
106,sakaiminato,35.55,133.2333,25.99,73,0,1.03,JP,1689535179
107,bontang,0.1333,117.5,24.75,91,100,3.87,ID,1689535180
108,tikrit,34.6071,43.6782,36.82,11,0,4.3,IQ,1689535180
109,badger,64.8,-147.5333,20.07,68,75,1.54,US,1689534912
110,anadyr,64.75,177.4833,19.28,72,0,1.79,RU,1689535181
111,saint-pierre,-21.3393,55.4781,22.82,73,0,7.72,RE,1689535104
112,huarmey,-10.0681,-78.1522,23.92,68,6,4.91,PE,1689535182
113,st. john's,47.5649,-52.7093,26.2,68,75,7.2,CA,1689535182
114,sabha,27.0377,14.4283,32.58,14,14,3.11,LY,1689535187
115,dudinka,69.4058,86.1778,5.9,80,99,3.49,RU,1689534904
116,tamiahua,21.2667,-97.45,32.89,52,19,5.59,MX,1689535188
117,pljevlja,43.3333,19.3333,21.48,58,0,1.45,ME,1689535189
118,puerto ayora,-0.7393,-90.3518,30.98,90,60,4.02,EC,1689535084
119,port elizabeth,-33.918,25.5701,15.16,82,0,2.57,ZA,1689534911
120,lady frere,-31.7031,27.2329,12.03,41,15,2.95,ZA,1689535190
121,kalmunai,7.4167,81.8167,26.61,82,100,4.04,LK,1689535190
122,pacific grove,36.6177,-121.9166,25.67,78,0,4.92,US,1689535191
123,pangai,-19.8,-174.35,21.06,88,100,5.66,TO,1689535191
124,constitucion,-35.3333,-72.4167,12.09,49,100,2.93,CL,1689535192
125,west side highway,46.184,-122.9172,28.62,60,0,2.57,US,1689535192
126,limassol,34.675,33.0333,32.32,70,0,3.6,CY,1689535192
127,ust-tsilma,65.441,52.1498,17.07,84,30,1.11,RU,1689535193
128,gokarna,14.55,74.3167,26.42,84,100,3.87,IN,1689535193
129,san antonio de pale,-1.4014,5.6325,23.06,81,5,5.14,GQ,1689535194
130,ilebo,-4.3167,20.5833,26.76,34,6,0.51,CD,1689535194
131,lihue,21.9789,-159.3672,27.77,66,75,6.17,US,1689535081
132,puerto baquerizo moreno,-0.9,-89.6,27.55,74,40,5.66,EC,1689535195
133,fale old settlement,-9.3852,-171.2468,28.39,75,25,6.87,TK,1689535059
134,kostomuksha,64.571,30.5767,18.24,58,100,3.95,RU,1689535196
135,hawaiian paradise park,19.5933,-154.9731,26.13,79,40,2.06,US,1689535065
136,sanga-sanga,5.0725,119.7853,28.23,79,100,8.6,PH,1689535197
137,ulladulla,-35.35,150.4667,9.93,89,0,1.95,AU,1689535073
138,buala,-8.145,159.5921,26.34,84,100,1.95,SB,1689535198
139,necochea,-38.5473,-58.7368,8.53,72,79,7.07,AR,1689535198
140,gao,16.6362,1.637,37.49,25,72,3.62,ML,1689535198
141,zemio,5.0314,25.1361,23.66,75,17,0.57,CF,1689535080
142,lebu,-37.6167,-73.65,9.7,63,100,7.32,CL,1689535070
143,raufoss,60.7264,10.6172,14.32,83,64,4.93,NO,1689535199
144,kotel'nikovo,47.6317,43.1461,19.69,66,100,3.8,RU,1689535200
145,north bend,43.4065,-124.2243,25.69,77,40,7.2,US,1689535200
146,forster,-32.1667,152.5167,12.99,100,92,0.62,AU,1689535201
147,saijo,33.9167,133.1833,26.38,85,2,2.0,JP,1689534901
148,longyearbyen,78.2186,15.6401,9.91,81,0,5.66,SJ,1689534910
149,haiku-pauwela,20.9219,-156.3051,27.36,61,20,3.13,US,1689535202
150,shimla,31.1,77.1667,17.53,93,13,1.12,IN,1689535203
151,merizo village,13.2658,144.6691,26.31,78,98,5.52,GU,1689535203
152,vila velha,-20.3297,-40.2925,25.97,66,0,4.12,BR,1689535204
153,erenhot,43.6475,111.9767,24.02,26,28,5.19,CN,1689535204
154,saldanha,-33.0117,17.9442,13.49,90,100,2.6,ZA,1689535205
155,tura,25.5198,90.2201,24.65,90,100,2.14,IN,1689535077
156,ghadamis,30.1337,9.5007,35.84,8,0,4.35,LY,1689535205
157,petropavlovsk-kamchatsky,53.0452,158.6483,10.33,100,100,1.0,RU,1689535056
158,heyuan,23.7333,114.6833,25.82,87,50,3.18,CN,1689535206
159,bela,25.9333,81.9833,30.91,64,100,3.58,IN,1689535207
160,ceerigaabo,10.6162,47.368,18.86,66,50,8.74,SO,1689535207
161,west island,-12.1568,96.8225,24.99,69,40,4.12,CC,1689535066
162,georgetown,5.4112,100.3354,27.96,82,20,1.03,MY,1689535101
163,sant lluis,39.8526,4.2594,26.22,94,75,3.6,ES,1689535208
164,chibougamau,49.9168,-74.3659,22.79,78,100,2.57,CA,1689535041
165,ben tre,10.2333,106.3833,25.95,86,100,4.17,VN,1689535209
166,san patricio,28.017,-97.5169,39.53,30,30,6.85,US,1689535058
167,sappemeer,53.1642,6.7903,19.99,61,75,5.66,NL,1689535210
168,klaksvik,62.2266,-6.589,9.51,89,100,10.08,FO,1689534901
169,nemuro,43.3236,145.575,12.92,94,100,2.64,JP,1689535086
170,matane,48.8286,-67.522,19.39,92,100,3.02,CA,1689535211
171,walvis bay,-22.9575,14.5053,16.72,36,0,5.01,NA,1689535212
172,pont rouge,48.8833,-72.0825,20.16,98,100,2.57,CA,1689535212
173,palmer,42.1584,-72.3287,25.35,85,75,3.6,US,1689535048
174,kailua-kona,19.6406,-155.9956,27.93,76,20,3.09,US,1689535042
175,port lincoln,-34.7333,135.8667,8.73,73,0,3.09,AU,1689535213
176,sitka,57.0531,-135.33,15.94,88,100,2.57,US,1689535214
177,sao joao da barra,-21.6403,-41.0511,27.05,74,50,6.35,BR,1689535021
178,andalgala,-27.5819,-66.3165,15.45,38,0,3.18,AR,1689535215
179,ra's bayrut,33.9,35.4833,32.28,89,0,2.06,LB,1689535215
180,bredasdorp,-34.5322,20.0403,13.63,82,100,2.7,ZA,1689535093
181,mukalla,14.5425,49.1242,31.66,58,58,0.41,YE,1689535216
182,lagoa,39.05,-27.9833,19.94,72,100,5.55,PT,1689535217
183,port alfred,-33.5906,26.891,16.74,54,53,3.59,ZA,1689535091
184,bathurst,-33.4166,149.5806,6.22,97,20,1.48,AU,1689535218
185,holualoa,19.6228,-155.9522,25.86,76,20,3.09,US,1689535018
186,hirara,24.8,125.2833,27.92,94,75,2.57,JP,1689535218
187,inongo,-1.95,18.2667,25.07,53,15,0.91,CD,1689535219
188,owando,-0.4819,15.8999,26.83,60,63,0.93,CG,1689535219
189,nar'yan-mar,67.6713,53.087,16.02,83,31,4.11,RU,1689535220
190,backa topola,45.8152,19.6318,26.83,62,0,3.16,RS,1689535220
191,punta arenas,-53.15,-70.9167,3.95,87,75,1.54,CL,1689535094
192,rio grande,-32.035,-52.0986,15.06,61,8,5.78,BR,1689535121
193,mogadishu,2.0371,45.3438,25.04,81,56,8.21,SO,1689535221
194,college,64.8569,-147.8028,19.56,71,100,1.54,US,1689534903
195,cambria,35.5641,-121.0808,35.9,63,100,2.29,US,1689535222
196,zhanjiang,21.2815,110.3427,25.26,94,100,4.07,CN,1689535223
197,amga,60.8953,131.9608,9.32,98,20,0.57,RU,1689535223
198,channarayapatna,12.9044,76.3917,21.16,87,100,4.67,IN,1689535223
199,las palmas de gran canaria,28.0997,-15.4134,25.07,61,20,10.29,ES,1689535224
200,barra,-11.0894,-43.1417,31.24,33,0,3.34,BR,1689535224
201,nchelenge,-9.3451,28.734,20.26,58,3,2.73,ZM,1689535225
202,tofol,5.3248,163.0078,27.8,80,100,6.18,FM,1689535225
203,mossendjo,-2.9506,12.7261,26.24,54,69,1.27,CG,1689535226
204,itoman,26.1247,127.6694,28.43,86,75,8.75,JP,1689535226
205,khonsa,27.0167,95.5667,20.21,98,100,1.37,IN,1689535157
206,bilibino,68.0546,166.4372,22.5,42,11,1.16,RU,1689535061
207,tannum sands,-23.9504,151.3693,16.94,82,100,2.57,AU,1689535228
208,noumea,-22.2763,166.4572,21.11,99,92,5.45,NC,1689535228
209,itaituba,-4.2761,-55.9836,33.09,58,40,2.57,BR,1689535155
210,ambon,-3.6954,128.1814,25.49,95,75,2.06,ID,1689534967
211,katsuura,35.1333,140.3,24.39,93,100,2.87,JP,1689535229
212,aasiaat,68.7098,-52.8699,2.74,93,100,1.02,GL,1689534918
213,juan griego,11.0817,-63.9655,29.74,69,24,7.05,VE,1689535230
214,jijiga,9.35,42.8,20.28,61,8,6.44,ET,1689535231
215,port mathurin,-19.6833,63.4167,23.26,73,0,12.27,MU,1689535231
216,freetown,8.484,-13.2299,27.84,69,75,5.14,SL,1689535231
217,luena,-11.7833,19.9167,15.46,39,2,2.45,AO,1689535232
218,shipston on stour,52.0606,-1.6278,17.68,72,9,6.15,GB,1689535232
219,mangrol,21.1167,70.1167,27.9,82,25,4.96,IN,1689535233
220,champerico,14.3,-91.9167,35.3,64,100,3.49,GT,1689535233
221,salekhard,66.53,66.6019,16.67,71,34,4.23,RU,1689535233
222,chonchi,-42.6128,-73.8092,7.29,61,6,2.04,CL,1689535234
223,undurkhaan,47.3194,110.6556,20.13,42,78,2.32,MN,1689535234
224,kindu,-2.95,25.95,28.23,34,100,1.11,CD,1689535071
225,manokwari,-0.8667,134.0833,25.15,82,51,1.1,ID,1689535070
226,piet retief,-27.0071,30.8132,8.72,47,0,0.93,ZA,1689535235
227,grand baie,-20.0182,57.5802,22.47,78,13,1.34,MU,1689535236
228,urangan,-25.3,152.9,18.56,80,53,4.69,AU,1689535236
229,romanovo,52.6182,81.2271,13.66,95,0,3.95,RU,1689535237
230,kamina,-8.7386,24.9906,20.16,44,0,2.3,CD,1689535238
231,vernon,50.2581,-119.2691,33.12,19,7,1.03,CA,1689535023
232,sur,22.5667,59.5289,31.98,57,56,4.59,OM,1689535239
233,san javier,37.8063,-0.8374,29.76,82,75,4.63,ES,1689534993
234,tabas,33.5959,56.9244,39.12,11,0,4.12,IR,1689535239
235,klyuchi,52.2667,79.1667,15.86,78,9,3.69,RU,1689535091
236,conception bay south,47.4999,-52.9981,26.07,71,100,3.87,CA,1689535240
237,verkhnevilyuysk,63.4453,120.3167,5.75,86,3,1.68,RU,1689535241
238,atafu village,-8.5421,-172.5159,28.6,74,96,6.68,TK,1689535241
239,tongchuan,35.0806,109.0897,22.55,46,0,2.32,CN,1689535241
240,novyy urengoy,66.0833,76.6333,10.13,47,20,2.58,RU,1689535242
241,taytay,14.5678,121.1394,25.51,97,75,1.03,PH,1689535243
242,jamestown,42.097,-79.2353,28.34,58,75,4.63,US,1689534785
243,burang,30.25,81.1667,11.8,76,90,2.24,CN,1689535244
244,tartagal,-22.5164,-63.8013,17.98,48,100,1.72,AR,1689535231
245,weno,7.4515,151.8468,27.97,83,100,4.12,FM,1689535068
246,san julian,21.0167,-102.1667,25.72,34,8,2.88,MX,1689535245
247,hell-ville,-13.4,48.2667,25.8,68,66,1.63,MG,1689535246
248,pimentel,-6.8367,-79.9342,26.16,65,75,4.12,PE,1689535246
249,ivanava,52.1451,25.5365,22.66,67,1,4.36,BY,1689535247
250,fort bragg,35.139,-79.006,34.08,54,20,4.12,US,1689535248
251,arteche,12.2645,125.4048,25.2,88,52,2.03,PH,1689535248
252,arraial do cabo,-22.9661,-42.0278,25.98,65,0,4.63,BR,1689535248
253,mikhaylovsk,45.1283,42.0256,16.12,72,40,5.0,RU,1689535249
254,sinop,41.7711,34.8709,16.47,90,1,1.34,TR,1689535250
255,amqui,48.4638,-67.4313,20.44,97,100,3.13,CA,1689535250
256,alofi,-19.0595,-169.9187,20.94,94,100,4.63,NU,1689535251
257,tsiombe,-25.3,45.4833,18.39,70,0,0.67,MG,1689535251
258,sainte-suzanne,-20.9061,55.6089,23.12,73,0,8.23,RE,1689535251
259,mananara,-16.1667,49.7667,20.06,87,79,2.46,MG,1689535252
260,balcarce,-37.8462,-58.2552,7.68,78,87,3.13,AR,1689535252
261,tralee,52.2704,-9.7026,13.56,88,98,5.54,IE,1689535253
262,touros,-5.1989,-35.4608,27.45,68,15,7.66,BR,1689535253
263,yuzhno-kurilsk,44.0306,145.8556,12.85,94,100,0.54,RU,1689535254
264,aginskoye,51.1,114.53,17.13,66,5,1.22,RU,1689535254
265,diego de almagro,-26.3667,-70.05,24.38,13,100,3.47,CL,1689535254
266,lieksa,63.3167,30.0167,17.61,63,79,4.42,FI,1689535255
267,cabo san lucas,22.8909,-109.9124,34.23,70,20,3.6,MX,1689534974
268,loen,7.7601,168.2307,28.05,72,87,6.64,MH,1689535255
269,remire-montjoly,4.9167,-52.2667,27.02,78,75,2.57,GF,1689535140
270,campos altos,-19.6961,-46.1714,20.75,61,100,0.97,BR,1689535257
271,coronel oviedo,-25.4167,-56.45,22.42,45,2,1.82,PY,1689535257
272,barcelos,41.5388,-8.6151,21.62,64,33,5.21,PT,1689535258
273,naxos,37.1056,25.3764,28.5,66,0,6.26,GR,1689535258
274,flying fish cove,-10.4217,105.6791,23.82,88,100,4.12,CX,1689535259
275,gotsucho,35.0,132.2167,24.06,84,0,2.22,JP,1689535260
276,mu'minobod,38.1085,70.0285,25.35,23,0,2.61,TJ,1689535260
277,ulsteinvik,62.3432,5.8487,18.51,68,50,4.47,NO,1689535261
278,keningau,5.3378,116.1602,22.17,93,95,0.15,MY,1689535261
279,salinopolis,-0.6136,-47.3561,27.92,75,63,5.37,BR,1689534891
280,kavaratti,10.5669,72.642,28.14,79,100,7.68,IN,1689535158
281,antsiranana,-12.2787,49.2917,22.88,80,22,4.8,MG,1689535263
282,kingscliff,-28.2667,153.5667,15.89,82,8,4.12,AU,1689535263
283,gamba,-2.65,10.0,21.22,91,49,2.68,GA,1689535264
284,nova sintra,14.8667,-24.7167,23.1,84,100,3.33,CV,1689535264
285,morehead city,34.7229,-76.726,33.01,84,20,9.77,US,1689535265
286,caleta de carquin,-11.0925,-77.6267,22.42,70,17,5.31,PE,1689535266
287,ola,59.5833,151.2833,11.65,89,100,0.88,RU,1689535065
288,puerto armuelles,8.2833,-82.8667,30.99,84,100,1.34,PA,1689535014
289,bhaisa,19.1,77.9667,23.21,93,100,6.53,IN,1689535268
290,gornozavodsk,58.3758,58.3211,15.3,73,100,1.9,RU,1689535268
291,guerrero negro,27.9769,-114.0611,26.0,57,98,4.15,MX,1689535269
292,geraldton,-28.7667,114.6,4.23,87,0,3.6,AU,1689535269
293,port-vila,-17.7338,168.3219,21.78,83,75,5.14,VU,1689535270
294,iskateley,67.6803,53.1512,16.0,84,36,4.06,RU,1689535271
295,el reno,35.5323,-97.955,34.03,51,0,1.54,US,1689535271
296,buy,58.4786,41.53,16.13,84,24,2.08,RU,1689535271
297,wynyard,-41.0,145.7167,9.99,86,34,4.39,AU,1689535272
298,margate,51.3813,1.3862,17.95,65,100,4.02,GB,1689535272
299,ipatovo,45.7181,42.9036,18.94,60,63,3.63,RU,1689535273
300,vila franca do campo,37.7167,-25.4333,21.23,66,99,1.82,PT,1689535274
301,pinheiro machado,-31.5783,-53.3811,10.27,69,34,3.96,BR,1689535274
302,amos,48.5669,-78.1162,26.53,46,30,1.21,CA,1689535275
303,buta,2.7858,24.73,24.4,71,19,1.17,CD,1689535275
304,rexburg,43.826,-111.7897,30.79,28,0,2.06,US,1689535035
305,malmberget,67.1753,20.6549,12.31,94,75,6.17,SE,1689535276
306,larkird,35.4894,66.6641,19.9,30,0,0.62,AF,1689535277
307,lashio,22.9333,97.75,20.4,99,75,0.68,MM,1689535277
308,diawara,15.022,-12.5437,30.82,65,100,2.26,SN,1689535278
309,novodvinsk,64.4165,40.8122,16.25,75,78,0.75,RU,1689535278
310,greymouth,-42.4667,171.2,7.94,90,100,1.72,NZ,1689535279
311,livadeia,38.435,22.8739,29.89,48,0,1.61,GR,1689535279
312,karasburg,-28.0167,18.75,16.09,28,0,4.57,NA,1689535280
313,lata,40.1629,-8.3327,19.49,57,45,3.36,PT,1689535280
314,nizhnesortymskiy,62.4397,71.7603,14.35,63,20,3.1,RU,1689534908
315,as sulayyil,20.4607,45.5779,37.14,9,94,4.16,SA,1689535282
316,xinyu,27.8043,114.9334,23.86,74,17,1.62,CN,1689535282
317,pitimbu,-7.4706,-34.8086,24.33,79,21,5.95,BR,1689535076
318,ebon,4.582,168.6964,28.0,77,100,5.04,MH,1689535283
319,inhambupe,-11.7844,-38.3531,26.29,61,87,4.55,BR,1689535284
320,leava,-14.3,-178.1667,26.47,79,93,12.91,WF,1689535284
321,palikir - national government center,6.9248,158.1611,26.86,82,100,8.14,FM,1689535285
322,polyarnyy,69.1989,33.4478,13.72,83,92,1.34,RU,1689535286
323,santa rosa,14.3122,121.1114,25.53,98,100,1.74,PH,1689535287
324,coquimbo,-29.9533,-71.3436,14.85,82,0,7.2,CL,1689535287
325,brookings,44.3114,-96.7984,23.99,61,0,6.17,US,1689535149
326,pueblo nuevo,23.3833,-105.3833,25.78,47,12,3.29,MX,1689535289
327,laguna,38.421,-121.4238,40.65,30,0,2.06,US,1689535262
328,bonnyville,54.2668,-110.735,20.89,45,99,2.54,CA,1689535291
329,kirensk,57.7853,108.1119,14.16,94,100,1.2,RU,1689535292
330,dauphin,51.1494,-100.0502,16.08,72,100,6.17,CA,1689535292
331,beidaihehaibin,39.8222,119.5181,22.21,74,0,1.88,CN,1689535293
332,acarau,-2.8856,-40.12,28.91,65,61,7.3,BR,1689535293
333,rabo de peixe,37.8,-25.5833,20.73,68,75,4.12,PT,1689535294
334,bay roberts,47.5999,-53.2648,26.4,79,42,0.45,CA,1689535295
335,kerema,-7.9631,145.7785,24.33,88,98,0.74,PG,1689535295
336,kavieng,-2.5744,150.7967,27.76,76,97,2.53,PG,1689535296
337,barah,13.7,30.3667,34.7,30,86,2.11,SD,1689535296
338,pico truncado,-46.7949,-67.9573,2.55,43,0,6.15,AR,1689535297
339,saint-philippe,-21.3585,55.7679,22.77,86,45,6.18,RE,1689535297
340,lipayran,11.0593,123.6342,28.32,71,49,4.28,PH,1689535298
341,pontes e lacerda,-15.2261,-59.3353,34.37,25,0,1.61,BR,1689535035
342,kingston,17.997,-76.7936,32.53,74,20,11.32,JM,1689535275
343,berezovyy,51.6667,135.7,16.55,81,100,1.17,RU,1689535300
344,namibe,-15.1961,12.1522,19.38,83,0,2.0,AO,1689535300
345,kinkala,-4.3614,14.7644,27.53,40,7,0.77,CG,1689535301
346,lerwick,60.1545,-1.1494,13.0,89,65,5.13,GB,1689535042
347,toledo,39.8333,-4.0,32.28,16,2,4.98,ES,1689535252
348,naze,28.3667,129.4833,27.51,85,100,6.95,JP,1689535302
349,nova olimpia,-14.7972,-57.2881,36.21,20,5,0.82,BR,1689535169
350,inari,68.906,27.0288,21.11,57,100,2.14,FI,1689535303
351,zalari,53.5584,102.5065,16.9,98,100,5.6,RU,1689535303
352,naples,40.8333,14.25,32.43,54,0,2.06,IT,1689535082
353,sovetskaya gavan',48.9723,140.2878,13.48,96,100,1.43,RU,1689535304
354,nyurba,63.2842,118.3319,6.16,84,55,1.76,RU,1689535304
355,mayya,61.7333,130.2811,4.62,81,90,0.42,RU,1689535305
356,saipan,15.1355,145.701,28.39,100,20,5.14,MP,1689534800
357,kangding,30.0513,101.9603,11.88,90,37,0.61,CN,1689535305
358,nuuk,64.1835,-51.7216,9.34,100,100,3.09,GL,1689535306
359,at taj,24.2049,23.2857,31.91,15,78,3.94,LY,1689535307
360,afaahiti,-17.75,-149.2833,25.93,64,5,1.97,PF,1689535308
361,kapuskasing,49.4169,-82.4331,24.05,43,75,3.09,CA,1689535308
362,olyokminsk,60.3736,120.4264,8.58,72,84,1.6,RU,1689535309
363,faya-largeau,17.9257,19.1043,37.11,11,72,3.93,TD,1689535309
364,howrah,22.5892,88.3103,28.0,94,40,2.57,IN,1689535310
365,kigoma,-4.8769,29.6267,23.82,66,0,3.18,TZ,1689535310
366,sinabang,2.4803,96.3801,26.07,84,39,1.73,ID,1689535311
367,lamu,-2.2717,40.902,25.12,80,94,6.55,KE,1689535311
368,mawu,29.5923,107.3139,21.46,89,0,1.89,CN,1689535312
369,camana,-16.6228,-72.7111,19.38,72,70,3.51,PE,1689535312
370,fort irwin,35.2627,-116.6848,41.9,12,0,4.12,US,1689535313
371,hachinohe,40.5,141.5,21.21,95,15,2.69,JP,1689535313
372,korsakov,46.6328,142.7813,11.91,92,100,3.9,RU,1689535314
373,amungan,15.3652,119.9582,26.88,91,100,7.19,PH,1689535314
374,la sarre,48.8002,-79.1996,26.06,40,5,2.46,CA,1689535314
375,al bardiyah,31.7561,25.0865,27.69,74,0,5.0,LY,1689535315
376,ad-damazin,11.7891,34.3592,26.96,64,100,4.61,SD,1689535315
377,san martin,-33.081,-68.4681,11.3,27,0,5.69,AR,1689535316
378,alo,7.4178,6.7371,25.51,89,42,0.99,NG,1689535316
379,kayyerkan,69.3786,87.7439,5.72,100,99,3.13,RU,1689535317
380,farasan,16.7022,42.1183,31.52,76,10,3.8,SA,1689535317
381,enewetak,11.3474,162.3373,28.06,79,72,7.38,MH,1689535078
382,kandahar,31.0,65.75,27.75,11,0,1.36,AF,1689535318
383,mili,6.0815,171.735,27.8,72,60,6.31,MH,1689534905
384,saint-francois,46.4154,3.9054,20.69,60,0,2.06,FR,1689535081
385,malango,-2.9627,119.9001,17.92,96,100,0.78,ID,1689535319
386,uliastay,47.7417,96.8444,16.56,38,7,1.33,MN,1689535319
387,l'aquila,42.365,13.3935,27.29,69,0,1.78,IT,1689535320
388,sandpoint,48.2766,-116.5533,33.81,28,0,3.09,US,1689535320
389,pailon,-17.65,-62.75,22.5,43,78,3.04,BO,1689535320
390,uglegorsk,49.0833,142.0333,14.28,95,100,0.61,RU,1689535321
391,lanja,16.85,73.55,24.19,91,100,1.17,IN,1689535321
392,labytnangi,66.6572,66.4183,17.06,70,77,3.69,RU,1689535322
393,zhangye,38.9342,100.4517,23.58,34,1,3.13,CN,1689534921
394,palangkaraya,-2.2,113.8333,22.42,97,100,0.98,ID,1689535323
395,fuerte olimpo,-21.0415,-57.8738,30.99,30,84,1.64,PY,1689535324
396,taltal,-25.4,-70.4833,18.24,71,100,2.4,CL,1689535324
397,novyy urgal,51.0736,132.5642,14.62,93,100,0.09,RU,1689535096
398,gulf shores,30.246,-87.7008,36.99,61,0,4.12,US,1689535325
399,tucuma,-0.1833,-50.05,30.3,62,12,4.38,BR,1689535283
400,stayton,44.8007,-122.7945,30.8,39,76,5.36,US,1689535326
401,alice springs,-23.7,133.8833,4.75,100,2,1.03,AU,1689535157
402,tambopata,-12.7333,-69.1833,30.94,37,40,2.57,PE,1689535327
403,bismarck,46.8083,-100.7837,22.91,53,40,7.72,US,1689535273
404,nizhniy odes,63.6445,54.856,17.77,55,100,1.28,RU,1689535328
405,fort st. john,56.2499,-120.8529,18.94,68,100,3.09,CA,1689535328
406,irymple,-34.25,142.1667,5.41,81,0,2.55,AU,1689535329
407,vorgashor,67.5833,63.95,13.96,89,81,2.41,RU,1689535329
408,carutapera,-1.195,-46.02,27.46,79,78,3.78,BR,1689535330
409,banda aceh,5.5577,95.3222,26.62,78,100,6.25,ID,1689535330
410,al burayqah,30.4062,19.5739,26.66,80,2,9.18,LY,1689535331
411,tromso,69.6496,18.957,16.01,77,75,6.69,NO,1689535331
412,i-n-salah,27.1935,2.4607,39.32,5,0,4.72,DZ,1689535331
413,lewistown,40.5992,-77.5714,31.45,58,20,2.06,US,1689535332
414,puerto rosario,-24.45,-57.0833,20.39,51,95,0.49,PY,1689535333
415,vilyuysk,63.7553,121.6247,5.59,87,11,1.6,RU,1689535333
416,thinadhoo,0.5333,72.9333,27.55,76,1,0.64,MV,1689535290
417,malabar,-33.9667,151.25,12.8,90,40,2.57,AU,1689535334
418,chul'man,56.8479,124.9104,11.17,81,15,0.76,RU,1689535334
419,mont-dore,-22.2833,166.5833,21.11,99,83,4.23,NC,1689535335
420,belle fourche,44.6714,-103.8522,30.83,27,79,4.71,US,1689535336
421,vrangel',42.7297,133.0839,16.74,91,100,5.09,RU,1689535336
422,bahia de kino,28.8333,-111.9333,38.84,61,100,3.93,MX,1689535337
423,adrar,20.5022,-10.0711,37.47,16,61,4.57,MR,1689535337
424,dunedin,-45.8742,170.5036,8.78,53,10,0.89,NZ,1689535319
425,qamdo,31.1667,97.2333,4.58,89,100,2.13,CN,1689535338
426,bishkek,42.87,74.59,21.11,33,54,2.51,KG,1689535338
427,taiyuan,37.8694,112.5603,21.92,46,0,1.0,CN,1689535332
428,santa cruz,-17.8,-63.1667,21.7,49,75,5.14,BO,1689535339
429,farah,32.5,62.5,31.35,13,0,1.16,AF,1689535340
430,genhe,50.7833,121.5167,14.23,80,72,0.43,CN,1689535340
431,gadzhiyevo,69.2551,33.3362,13.04,85,91,1.36,RU,1689534915
432,shenkursk,62.1091,42.896,18.96,67,87,1.61,RU,1689535341
433,wajir,1.7471,40.0573,27.58,42,34,8.94,KE,1689535341
434,kerman,30.2832,57.0788,26.92,17,0,2.06,IR,1689535342
435,dengi,9.3667,9.95,26.95,63,18,1.22,NG,1689535335
436,balingcanaway,15.4817,120.6856,24.73,96,100,2.87,PH,1689535343
437,mata-utu,-13.2816,-176.1745,27.23,78,58,8.74,WF,1689535091
438,villa gesell,-37.2639,-56.973,10.03,69,86,8.38,AR,1689535344
439,bundaberg,-24.85,152.35,16.79,96,68,2.24,AU,1689535344
440,banjar,-8.19,114.9675,22.62,87,80,2.73,ID,1689535345
441,haslett,42.747,-84.4011,28.08,57,40,8.75,US,1689535345
442,talcahuano,-36.7167,-73.1167,11.82,54,0,4.12,CL,1689535346
443,muynoq,43.7683,59.0214,26.88,54,100,3.39,UZ,1689535346
444,mollendo,-17.0231,-72.0147,18.91,71,72,3.68,PE,1689535347
445,mount isa,-20.7333,139.5,19.87,60,100,2.06,AU,1689535347
446,corner brook,48.9667,-57.9484,28.09,63,100,3.32,CA,1689535348
447,poronaysk,49.2167,143.1167,11.96,97,100,1.38,RU,1689535348
448,long beach,33.767,-118.1892,36.02,71,0,3.6,US,1689535345
449,asau,46.4333,26.4,24.6,74,0,1.35,RO,1689535349
450,westport,41.1415,-73.3579,26.75,90,75,2.06,US,1689535060
451,darwin,-12.4611,130.8418,24.94,88,75,1.54,AU,1689535350
452,lompoc,34.6391,-120.4579,26.58,72,75,3.6,US,1689535350
453,kasimov,54.9411,41.3953,15.03,84,97,2.93,RU,1689535350
454,suntar,62.1444,117.6319,7.24,77,90,2.46,RU,1689535351
455,toliara,-23.35,43.6667,20.21,79,1,2.8,MG,1689535351
456,bandarbeyla,9.4942,50.8122,24.08,84,92,14.16,SO,1689535352
457,broome,42.2506,-75.833,28.16,74,40,4.12,US,1689535352
458,porto-vecchio,41.591,9.2795,27.81,74,0,0.51,FR,1689535353
459,neiafu,-18.65,-173.9833,22.38,78,75,4.63,TO,1689535353
460,zakynthos,37.7914,20.8953,29.62,70,0,0.0,GR,1689535354
461,chengde,40.9725,117.9361,19.27,62,0,0.92,CN,1689535354
462,tuzha,57.6062,47.936,13.43,88,0,3.41,RU,1689535355
463,newport beach,33.6189,-117.9289,36.2,75,20,4.63,US,1689535355
464,camocim,-2.9022,-40.8411,31.25,54,96,6.91,BR,1689535356
465,pingxiang,27.6167,113.85,23.84,75,31,1.35,CN,1689535356
466,progreso,21.2833,-89.6667,37.28,55,70,6.21,MX,1689535111
467,puerto lempira,15.2667,-83.7667,31.08,66,75,2.06,HN,1689535357
468,kirakira,-10.4544,161.9205,25.53,90,84,4.16,SB,1689535358
469,sola,-13.8833,167.55,25.52,82,100,11.72,VU,1689535072
470,labasa,-16.4167,179.3833,22.73,87,94,4.43,FJ,1689535358
471,fisterra,42.9049,-9.2629,20.42,71,2,6.11,ES,1689535359
472,bamboo flat,11.7,92.7167,28.05,83,75,6.17,IN,1689535359
473,newman,37.3138,-121.0208,40.03,11,100,0.51,US,1689535360
474,tual,-5.6667,132.75,26.26,80,75,10.11,ID,1689535360
475,commentry,46.2921,2.7416,19.26,67,0,2.71,FR,1689535360
476,maumere,-8.6199,122.2111,24.98,77,74,5.53,ID,1689535361
477,opuwo,-18.0607,13.84,19.07,27,0,4.44,NA,1689534904
478,shiyan,32.6475,110.7781,22.76,85,0,0.97,CN,1689535362
479,phan rang-thap cham,11.5667,108.9833,26.57,75,100,3.3,VN,1689535362
480,howard springs,-12.497,131.047,24.9,59,100,2.34,AU,1689535363
481,mahina,-17.5065,-149.489,26.87,61,20,3.09,PF,1689535363
482,pandan,14.0453,124.1694,26.83,83,100,4.2,PH,1689535364
483,bima,-8.4667,118.7167,23.03,93,39,2.29,ID,1689535364
484,lubang,13.8584,120.124,28.35,82,100,12.62,PH,1689535364
485,rubizhne,49.0123,38.3797,19.77,63,52,2.26,UA,1689535365
486,kargasok,59.0556,80.8572,12.53,74,0,3.53,RU,1689535365
487,menaka,15.9182,2.4022,37.65,27,59,2.84,ML,1689535366
488,kenai,60.5544,-151.2583,12.3,98,100,3.09,US,1689535366
489,aykhal,66.0,111.5,9.59,58,100,3.25,RU,1689535367
490,marquelia,16.5833,-98.8167,32.23,60,17,4.33,MX,1689535367
491,carbonear,47.7332,-53.2148,25.97,79,14,3.25,CA,1689535367
492,bairnsdale,-37.8333,147.6167,2.81,95,5,2.03,AU,1689535368
493,taoyuan city,24.9937,121.297,29.49,88,75,1.54,TW,1689535368
494,katima mulilo,-17.5,24.2667,14.24,44,0,2.17,NA,1689535369
495,demyansk,57.643,32.466,17.81,61,96,1.4,RU,1689535369
496,mstsislaw,54.0192,31.7257,16.73,61,0,0.92,BY,1689535369
497,ares,-6.1944,-35.1603,28.05,68,22,6.66,BR,1689535370
498,pangody,65.85,74.4859,11.21,63,17,3.96,RU,1689535370
499,sokoni,-6.4333,39.55,25.17,75,0,7.15,TZ,1689535370
500,penal,10.1667,-61.4667,32.72,76,65,3.13,TT,1689535371
501,harper,4.375,-7.7169,25.22,86,71,4.23,LR,1689535371
502,cheremushki,52.8356,91.3944,15.94,81,88,1.53,RU,1689535372
503,dubbo,-32.25,148.6167,9.07,87,40,6.69,AU,1689535372
504,alesund,62.4723,6.1549,18.52,76,40,1.54,NO,1689535373
505,mityana,0.4175,32.0228,16.63,90,5,1.04,UG,1689535373
506,gagra,43.3283,40.2239,19.52,81,0,3.23,GE,1689535373
507,ixtapa,20.7,-105.2,32.9,70,75,3.6,MX,1689535197
508,alenquer,-1.9417,-54.7383,34.36,38,95,3.09,BR,1689535374
509,sandnessjoen,66.0217,12.6316,16.06,82,75,4.63,NO,1689534899
510,isangel,-19.55,169.2667,21.06,83,20,2.57,VU,1689535368
511,cardigan,52.0847,-4.6591,15.96,81,18,6.9,GB,1689535375
512,santa elena de uairen,4.6167,-61.1333,25.26,67,52,3.93,VE,1689535376
513,lorengau,-2.0226,147.2712,27.48,80,21,4.31,PG,1689535376
514,tomatlan,19.9333,-105.25,35.47,47,9,2.85,MX,1689535377
515,vadso,70.0744,29.7487,17.49,87,0,6.17,NO,1689535377
516,khandyga,62.6667,135.6,11.06,78,100,0.84,RU,1689535378
517,colby,39.3958,-101.0524,31.67,51,0,4.63,US,1689535378
518,kloulklubed,7.0419,134.2556,27.82,83,100,8.17,PW,1689535379
519,verkhniy baskunchak,48.2256,46.7217,21.94,49,100,6.81,RU,1689535379
520,bereznik,62.8551,42.7072,18.58,67,96,1.49,RU,1689535380
521,akureyri,65.6835,-18.0878,7.96,81,75,6.69,IS,1689535380
522,zaragoza,41.6561,-0.8773,32.25,40,0,5.14,ES,1689535371
523,sanming,26.2486,117.6186,25.21,94,100,1.12,CN,1689535381
524,sandikli,38.4647,30.2695,20.99,33,0,2.83,TR,1689535381
525,ryotsu-minato,38.0833,138.4333,24.38,90,18,2.49,JP,1689535382
526,bhadasar,28.2833,74.3167,32.41,55,75,4.71,IN,1689535382
527,north bay,46.3168,-79.4663,26.01,65,40,5.14,CA,1689535383
528,kuta,-8.7233,115.1723,25.97,83,20,5.36,ID,1689535383
529,figuig (centre),32.1089,-1.2286,33.98,6,0,4.14,MA,1689535384
530,port saint john's,-31.6229,29.5448,16.95,64,5,2.51,ZA,1689535384
531,kiama,-34.6833,150.8667,9.03,99,37,1.66,AU,1689535096
532,playa del ingles,27.7567,-15.5787,24.86,68,17,1.34,ES,1689535385
533,mugia,43.1041,-9.2179,20.51,68,0,4.43,ES,1689535385
534,kroya,-7.6331,109.2461,22.29,91,19,2.86,ID,1689535386
535,aras-asan,8.8908,126.3033,25.44,88,100,1.66,PH,1689535386
536,masuguru,-11.3667,38.4167,25.07,42,100,1.22,TZ,1689535387
537,mto wa mbu,-3.35,35.85,19.43,54,0,0.55,TZ,1689535387
538,caconda,-13.7333,15.0667,18.04,29,15,2.17,AO,1689535387
539,iquique,-20.2208,-70.1431,20.02,67,31,3.34,CL,1689534838
540,vanino,49.0869,140.2543,13.44,96,100,0.98,RU,1689535388
541,sungailiat,-1.85,106.1333,26.34,85,51,5.24,ID,1689535389
542,juchipila,21.4167,-103.1167,32.11,28,1,1.44,MX,1689535389
543,sidney,-33.8679,151.2073,12.57,91,40,2.57,AU,1689535171
544,buenaventura,3.8801,-77.0312,28.66,81,99,1.81,CO,1689535390
545,umm kaddadah,13.6017,26.6876,35.13,26,6,4.08,SD,1689535390
546,ad dilam,23.9915,47.1627,38.23,12,11,3.78,SA,1689535391
547,villa angela,-27.5738,-60.7153,20.28,40,0,2.86,AR,1689535391
548,plastun,44.7561,136.2939,14.47,94,100,0.61,RU,1689535392
549,zile,40.3031,35.8864,15.88,77,0,1.82,TR,1689535392
550,kantunilkin,21.0917,-87.45,38.83,28,11,2.99,MX,1689535392
551,dryden,49.7833,-92.7503,15.16,88,100,4.12,CA,1689535393
552,sittwe,20.15,92.9,26.57,88,100,3.61,MM,1689535393
553,rongelap,11.1635,166.8941,28.21,75,94,6.27,MH,1689535275
554,kabansk,52.0486,106.6528,15.71,93,13,0.81,RU,1689535394
555,auki,-8.7676,160.7034,25.08,90,90,1.72,SB,1689535395
556,thunder bay,48.4001,-89.3168,13.99,94,100,4.12,CA,1689535265
557,dalandzadgad,43.5708,104.425,24.66,25,82,4.1,MN,1689535395
558,coahuayana de hidalgo,18.7,-103.6583,34.66,52,44,3.12,MX,1689535396
559,kodinsk,58.6881,99.1844,13.07,96,100,0.95,RU,1689535396
560,pemangkat,1.1667,108.9667,25.89,88,100,4.49,ID,1689535396
561,pumiao,22.75,108.4833,30.22,64,100,3.37,CN,1689535397
562,stephenville,32.2207,-98.2023,37.44,33,0,2.06,US,1689535397
563,la ronge,55.1001,-105.2842,19.12,52,100,2.57,CA,1689535398
564,newport,51.5877,-2.9984,16.49,79,1,7.21,GB,1689535398
565,troitsko-pechorsk,62.7084,56.1964,16.54,59,94,1.28,RU,1689535399
566,hammerfest,70.6634,23.6821,19.25,55,0,7.2,NO,1689535399
567,gospic,44.5461,15.3747,24.83,62,0,0.63,HR,1689535399
568,mayahi,13.9553,7.6712,29.64,47,100,7.29,NE,1689535400
569,penn yan,42.6609,-77.0539,27.88,67,40,3.09,US,1689535400
570,brisas barra de suchiate,14.55,-92.2167,33.1,66,100,4.16,MX,1689535401
571,new norfolk,-42.7826,147.0587,12.73,67,90,4.88,AU,1689535060
572,flekkefjord,58.2971,6.6607,16.08,94,70,6.65,NO,1689535338
573,mejit,10.2753,170.8646,27.77,77,98,4.83,MH,1689535275
